[
  {"id":1,"name":"有楽町一丁目","address":"東京都千代田区有楽町１‐７‐１","lat":35.67458,"lng":139.7614697},
  {"id":2,"name":"日比谷メトロピア","address":"東京都千代田区有楽町１‐５‐１","lat":35.6745133,"lng":139.7597226},
  {"id":3,"name":"ＪＡ共済ビル","address":"東京都千代田区平河町２‐７‐９","lat":35.6803454,"lng":139.7403102},
  {"id":4,"name":"平河町二丁目","address":"東京都千代田区平河町２‐７‐４","lat":35.6794816,"lng":139.7402796},
  {"id":5,"name":"平河町森タワー","address":"東京都千代田区平河町２‐１６‐１","lat":35.6797789,"lng":139.7417962},
  {"id":6,"name":"ＪＰローソン東京逓信病院","address":"東京都千代田区富士見２‐１４‐２３","lat":35.6975963,"lng":139.7431258},
  {"id":7,"name":"飯田橋三丁目","address":"東京都千代田区飯田橋３‐６‐５","lat":35.701621,"lng":139.7465893},
  {"id":8,"name":"二番町","address":"東京都千代田区二番町１４‐３","lat":35.6870695,"lng":139.7366713},
  {"id":9,"name":"内神田二丁目","address":"東京都千代田区内神田２‐１０‐１２","lat":35.6907811,"lng":139.7679518},
  {"id":10,"name":"内幸町一丁目","address":"東京都千代田区内幸町１‐３‐３","lat":35.6694277,"lng":139.7569925},
  {"id":11,"name":"神田鍛冶町二丁目","address":"東京都千代田区鍛冶町２‐３‐２","lat":35.6912895,"lng":	139.7721209},
  {"id":12,"name":"神田駅東口","address":"東京都千代田区鍛冶町２‐２‐９","lat":35.6915367,"lng":139.7714349},
  {"id":13,"name":"大手町二丁目","address":"東京都千代田区大手町２‐３‐５","lat":35.6879676,"lng":139.7673104},
  {"id":14,"name":"新大手町ビル","address":"東京都千代田区大手町２‐２‐１","lat":35.6852762,"lng":139.7670688},
  {"id":15,"name":"大手町フィナンシャルシティサウス","address":"東京都千代田区大手町１‐９‐７","lat":	35.6876537,"lng":139.7657827},
  {"id":16,"name":"大手町フィナンシャルシティノース","address":"東京都千代田区大手町１‐９‐５","lat":35.6882952,"lng":139.7659132},
  {"id":17,"name":"大手町西メトロピア","address":"東京都千代田区大手町１‐６‐１","lat":35.6862982,"lng":139.7642329},
  {"id":18,"name":"大手センタービル","address":"東京都千代田区大手町１‐１‐３","lat":35.6860288,"lng":139.7628691},
  {"id":19,"name":"赤坂氷川神社","address":"東京都港区赤坂６丁目１０−１２","lat":35.6741583,"lng":139.7389119},
  {"id":20,"name":"西神田二丁目","address":"東京都千代田区西神田２‐５‐２","lat":35.696917,"lng":139.729584}
]
